{
  "arsenal": {
    "city": "London",
    "lat": 51.5549,
    "lng": -0.1084,
    "region": "europe",
    "stadium": "Emirates Stadium"
  },
  "chelsea": {
    "city": "London",
    "lat": 51.4816,
    "lng": -0.1910,
    "region": "europe",
    "stadium": "Stamford Bridge"
  },
  "liverpool": {
    "city": "Liverpool",
    "lat": 53.4308,
    "lng": -2.9608,
    "region": "europe",
    "stadium": "Anfield"
  },
  "manchester united": {
    "city": "Manchester",
    "lat": 53.4631,
    "lng": -2.2913,
    "region": "europe",
    "stadium": "Old Trafford"
  },
  "manchester city": {
    "city": "Manchester",
    "lat": 53.4831,
    "lng": -2.2004,
    "region": "europe",
    "stadium": "Etihad Stadium"
  },
  "tottenham": {
    "city": "London",
    "lat": 51.6033,
    "lng": -0.0659,
    "region": "europe",
    "stadium": "Tottenham Hotspur Stadium"
  },
  "real madrid": {
    "city": "Madrid",
    "lat": 40.4530,
    "lng": -3.6883,
    "region": "europe",
    "stadium": "Santiago Bernabeu"
  },
  "barcelona": {
    "city": "Barcelona",
    "lat": 41.3809,
    "lng": 2.1228,
    "region": "europe",
    "stadium": "Estadi Olimpic Lluis Companys"
  },
  "atletico madrid": {
    "city": "Madrid",
    "lat": 40.4361,
    "lng": -3.5995,
    "region": "europe",
    "stadium": "Civitas Metropolitano"
  },
  "psg": {
    "city": "Paris",
    "lat": 48.8414,
    "lng": 2.2530,
    "region": "europe",
    "stadium": "Parc des Princes"
  },
  "bayern": {
    "city": "Munich",
    "lat": 48.2188,
    "lng": 11.6247,
    "region": "europe",
    "stadium": "Allianz Arena"
  },
  "borussia dortmund": {
    "city": "Dortmund",
    "lat": 51.4926,
    "lng": 7.4518,
    "region": "europe",
    "stadium": "Signal Iduna Park"
  },
  "juventus": {
    "city": "Turin",
    "lat": 45.1096,
    "lng": 7.6412,
    "region": "europe",
    "stadium": "Juventus Stadium"
  },
  "inter milan": {
    "city": "Milan",
    "lat": 45.4781,
    "lng": 9.1240,
    "region": "europe",
    "stadium": "San Siro"
  },
  "ac milan": {
    "city": "Milan",
    "lat": 45.4781,
    "lng": 9.1240,
    "region": "europe",
    "stadium": "San Siro"
  },
  "flamengo": {
    "city": "Rio de Janeiro",
    "lat": -22.9120,
    "lng": -43.2301,
    "region": "southamerica",
    "stadium": "Maracana"
  },
  "palmeiras": {
    "city": "Sao Paulo",
    "lat": -23.5267,
    "lng": -46.7195,
    "region": "southamerica",
    "stadium": "Allianz Parque"
  },
  "boca": {
    "city": "Buenos Aires",
    "lat": -34.6353,
    "lng": -58.3653,
    "region": "southamerica",
    "stadium": "La Bombonera"
  },
  "river plate": {
    "city": "Buenos Aires",
    "lat": -34.5455,
    "lng": -58.4498,
    "region": "southamerica",
    "stadium": "El Monumental"
  },
  "inter miami": {
    "city": "Miami",
    "lat": 25.7582,
    "lng": -80.2388,
    "region": "northamerica",
    "stadium": "Chase Stadium"
  },
  "lafc": {
    "city": "Los Angeles",
    "lat": 34.0136,
    "lng": -118.2851,
    "region": "northamerica",
    "stadium": "BMO Stadium"
  },
  "al nassr": {
    "city": "Riyadh",
    "lat": 24.7136,
    "lng": 46.6753,
    "region": "asia",
    "stadium": "Al-Awwal Park"
  },
  "al hilal": {
    "city": "Riyadh",
    "lat": 24.7592,
    "lng": 46.6862,
    "region": "asia",
    "stadium": "Kingdom Arena"
  },
  "al ahly": {
    "city": "Cairo",
    "lat": 30.0626,
    "lng": 31.2217,
    "region": "africa",
    "stadium": "Al Ahly Stadium"
  },
  "man utd": {
    "city": "Manchester",
    "lat": 53.4631,
    "lng": -2.2913,
    "region": "europe",
    "stadium": "Old Trafford"
  },
  "man united": {
    "city": "Manchester",
    "lat": 53.4631,
    "lng": -2.2913,
    "region": "europe",
    "stadium": "Old Trafford"
  },
  "man city": {
    "city": "Manchester",
    "lat": 53.4831,
    "lng": -2.2004,
    "region": "europe",
    "stadium": "Etihad Stadium"
  },
  "ajax": {
    "city": "Amsterdam",
    "lat": 52.3143,
    "lng": 4.9419,
    "region": "europe",
    "stadium": "Johan Cruyff Arena"
  },
  "benfica": {
    "city": "Lisbon",
    "lat": 38.7522,
    "lng": -9.1845,
    "region": "europe",
    "stadium": "Estadio da Luz"
  },
  "sporting": {
    "city": "Lisbon",
    "lat": 38.7613,
    "lng": -9.1606,
    "region": "europe",
    "stadium": "Estadio Jose Alvalade"
  },
  "porto": {
    "city": "Porto",
    "lat": 41.1619,
    "lng": -8.5831,
    "region": "europe",
    "stadium": "Estadio do Dragao"
  },
  "napoli": {
    "city": "Naples",
    "lat": 40.8279,
    "lng": 14.1933,
    "region": "europe",
    "stadium": "Diego Armando Maradona"
  },
  "roma": {
    "city": "Rome",
    "lat": 41.9340,
    "lng": 12.4547,
    "region": "europe",
    "stadium": "Stadio Olimpico"
  },
  "lazio": {
    "city": "Rome",
    "lat": 41.9340,
    "lng": 12.4547,
    "region": "europe",
    "stadium": "Stadio Olimpico"
  },
  "sevilla": {
    "city": "Seville",
    "lat": 37.3840,
    "lng": -5.9705,
    "region": "europe",
    "stadium": "Ramon Sanchez-Pizjuan"
  },
  "valencia": {
    "city": "Valencia",
    "lat": 39.4749,
    "lng": -0.3585,
    "region": "europe",
    "stadium": "Mestalla"
  },
  "marseille": {
    "city": "Marseille",
    "lat": 43.2697,
    "lng": 5.3962,
    "region": "europe",
    "stadium": "Orange Velodrome"
  },
  "lyon": {
    "city": "Lyon",
    "lat": 45.7653,
    "lng": 4.9822,
    "region": "europe",
    "stadium": "Groupama Stadium"
  },
  "monaco": {
    "city": "Monaco",
    "lat": 43.7272,
    "lng": 7.4157,
    "region": "europe",
    "stadium": "Stade Louis II"
  },
  "rb leipzig": {
    "city": "Leipzig",
    "lat": 51.3458,
    "lng": 12.3481,
    "region": "europe",
    "stadium": "Red Bull Arena"
  },
  "leverkusen": {
    "city": "Leverkusen",
    "lat": 51.0382,
    "lng": 7.0023,
    "region": "europe",
    "stadium": "BayArena"
  },
  "galatasaray": {
    "city": "Istanbul",
    "lat": 41.0767,
    "lng": 29.0233,
    "region": "europe",
    "stadium": "Rams Park"
  },
  "fenerbahce": {
    "city": "Istanbul",
    "lat": 40.9782,
    "lng": 29.0347,
    "region": "europe",
    "stadium": "Sukru Saracoglu"
  },
  "celtic": {
    "city": "Glasgow",
    "lat": 55.8497,
    "lng": -4.2057,
    "region": "europe",
    "stadium": "Celtic Park"
  },
  "rangers": {
    "city": "Glasgow",
    "lat": 55.8510,
    "lng": -4.3091,
    "region": "europe",
    "stadium": "Ibrox Stadium"
  },
  "club america": {
    "city": "Mexico City",
    "lat": 19.3030,
    "lng": -99.1502,
    "region": "northamerica",
    "stadium": "Estadio Azteca"
  },
  "tigres": {
    "city": "Monterrey",
    "lat": 25.6694,
    "lng": -100.2462,
    "region": "northamerica",
    "stadium": "Estadio Universitario"
  },
  "monterrey": {
    "city": "Monterrey",
    "lat": 25.6693,
    "lng": -100.3126,
    "region": "northamerica",
    "stadium": "Estadio BBVA"
  },
  "al ittihad": {
    "city": "Jeddah",
    "lat": 21.5257,
    "lng": 39.1711,
    "region": "asia",
    "stadium": "King Abdullah Sports City"
  },
  "urawa reds": {
    "city": "Saitama",
    "lat": 35.8951,
    "lng": 139.6537,
    "region": "asia",
    "stadium": "Saitama Stadium"
  },
  "kawasaki frontale": {
    "city": "Kawasaki",
    "lat": 35.5729,
    "lng": 139.6590,
    "region": "asia",
    "stadium": "Todoroki Athletics Stadium"
  },
  "champions league": {
    "city": "Nyon",
    "lat": 46.3833,
    "lng": 6.2333,
    "region": "europe"
  },
  "premier league": {
    "city": "London",
    "lat": 51.5074,
    "lng": -0.1278,
    "region": "europe"
  },
  "la liga": {
    "city": "Madrid",
    "lat": 40.4168,
    "lng": -3.7038,
    "region": "europe"
  },
  "bundesliga": {
    "city": "Frankfurt",
    "lat": 50.1109,
    "lng": 8.6821,
    "region": "europe"
  },
  "serie a": {
    "city": "Milan",
    "lat": 45.4642,
    "lng": 9.1900,
    "region": "europe"
  },
  "ligue 1": {
    "city": "Paris",
    "lat": 48.8566,
    "lng": 2.3522,
    "region": "europe"
  },
  "mls": {
    "city": "New York",
    "lat": 40.7128,
    "lng": -74.0060,
    "region": "northamerica"
  },
  "libertadores": {
    "city": "Buenos Aires",
    "lat": -34.6037,
    "lng": -58.3816,
    "region": "southamerica"
  },
  "afc champions league": {
    "city": "Kuala Lumpur",
    "lat": 3.1390,
    "lng": 101.6869,
    "region": "asia"
  },
  "caf champions league": {
    "city": "Cairo",
    "lat": 30.0444,
    "lng": 31.2357,
    "region": "africa"
  }
}
